[
    {
        "id": 1,
        "name": "越秀公园",
        "district": "越秀区",
        "location": "越秀区解放北路988号",
        "coordinates": [113.2644, 23.1291],
        "openTime": "06:00-22:00",
        "fee": "免费",
        "image": "https://store.is.autonavi.com/showpic/72ca990c37c72a6e1bab954f06e32791?type=pic",
        "description": "广州最大的综合性公园，有五羊石像、镇海楼等著名景点，是广州的标志性公园。"
    },
    {
        "id": 2,
        "name": "人民公园",
        "district": "越秀区",
        "location": "越秀区府前路",
        "coordinates": [113.2594, 23.1241],
        "openTime": "06:00-22:00",
        "fee": "免费",
        "image": "https://aos-comment.amap.com/B00140UFEV/comment/content_media_external_images_media_100004278_1730877637107_00515818.jpg",
        "description": "位于市中心的历史悠久公园，是市民晨练和休闲的重要场所。"
    },
    {
        "id": 3,
        "name": "东山湖公园",
        "district": "越秀区",
        "location": "越秀区东山湖路",
        "coordinates": [113.2894, 23.1341],
        "openTime": "06:00-22:00",
        "fee": "免费",
        "image": "https://store.is.autonavi.com/showpic/5aa0d552b30e7b2f91200c6c912b78a7",
        "description": "以湖景为特色的城市公园，环境清幽，适合散步和观景。"
    },
    {
        "id": 4,
        "name": "荔枝湾涌公园",
        "district": "荔湾区",
        "location": "荔湾区中山八路",
        "coordinates": [113.2394, 23.1167],
        "openTime": "全天开放",
        "fee": "免费",
        "image": "https://store.is.autonavi.com/showpic/200a6cece287d41dc5281ae299e0aa11",
        "description": "具有浓郁岭南水乡特色的公园，保留了传统的西关风情和水乡文化。"
    },
    {
        "id": 5,
        "name": "沙面公园",
        "district": "荔湾区",
        "location": "荔湾区沙面大街",
        "coordinates": [113.2344, 23.1117],
        "openTime": "全天开放",
        "fee": "免费",
        "image": "https://store.is.autonavi.com/showpic/3438767c5ef9ee75897653951fdd1a39",
        "description": "历史文化街区内的精致公园，欧式建筑与园林景观完美融合。"
    },
    {
        "id": 6,
        "name": "文化公园",
        "district": "荔湾区",
        "location": "荔湾区西堤二马路",
        "coordinates": [113.2444, 23.1067],
        "openTime": "06:00-22:00",
        "fee": "免费",
        "image": "https://picsum.photos/350/200?random=6",
        "description": "以文化活动为主题的综合性公园，经常举办各种文艺演出和展览。"
    },
    {
        "id": 7,
        "name": "海珠湖公园",
        "district": "海珠区",
        "location": "海珠区新滘中路",
        "coordinates": [113.3089, 23.0889],
        "openTime": "06:00-22:00",
        "fee": "免费",
        "image": "https://picsum.photos/350/200?random=7",
        "description": "广州最大的人工湖公园，湖光山色，是市民休闲娱乐的好去处。"
    },
    {
        "id": 8,
        "name": "海珠国家湿地公园",
        "district": "海珠区",
        "location": "海珠区新港中路",
        "coordinates": [113.3189, 23.0939],
        "openTime": "08:00-18:00",
        "fee": "免费",
        "image": "https://picsum.photos/350/200?random=8",
        "description": "城市中心的国家湿地公园，生态环境优美，是观鸟和生态教育的好地方。"
    },
    {
        "id": 9,
        "name": "晓港公园",
        "district": "海珠区",
        "location": "海珠区前进路",
        "coordinates": [113.2989, 23.1039],
        "openTime": "06:00-22:00",
        "fee": "免费",
        "image": "https://picsum.photos/350/200?random=9",
        "description": "以岭南园林风格为特色的公园，古典雅致，是摄影爱好者的热门地点。"
    },
    {
        "id": 10,
        "name": "天河公园",
        "district": "天河区",
        "location": "天河区黄埔大道员村",
        "coordinates": [113.3644, 23.1167],
        "openTime": "06:00-22:00",
        "fee": "免费",
        "image": "https://picsum.photos/350/200?random=10",
        "description": "位于天河区中心的综合性公园，绿树成荫，环境优美。"
    },
    {
        "id": 11,
        "name": "珠江公园",
        "district": "天河区",
        "location": "天河区珠江新城",
        "coordinates": [113.3744, 23.1217],
        "openTime": "全天开放",
        "fee": "免费",
        "image": "https://picsum.photos/350/200?random=11",
        "description": "现代化城市公园，位于CBD核心区域，是商务人士休憩的绿洲。"
    },
    {
        "id": 12,
        "name": "火炉山森林公园",
        "district": "天河区",
        "location": "天河区火炉山路",
        "coordinates": [113.4044, 23.1567],
        "openTime": "06:00-18:00",
        "fee": "免费",
        "image": "https://picsum.photos/350/200?random=12",
        "description": "天河区的天然氧吧，登山健身的好去处，可俯瞰城市全景。"
    },
    {
        "id": 13,
        "name": "白云山风景区",
        "district": "白云区",
        "location": "白云区白云山南路",
        "coordinates": [113.2894, 23.1644],
        "openTime": "06:00-18:00",
        "fee": "收费",
        "image": "https://picsum.photos/350/200?random=13",
        "description": "广州著名的风景名胜区，被誉为'羊城第一秀'，是登高望远的绝佳去处。"
    },
    {
        "id": 14,
        "name": "云台花园",
        "district": "白云区",
        "location": "白云区白云山南麓",
        "coordinates": [113.2844, 23.1594],
        "openTime": "08:00-18:00",
        "fee": "收费",
        "image": "https://picsum.photos/350/200?random=14",
        "description": "以花卉为主题的专类公园，四季花开，是婚纱摄影的热门地点。"
    },
    {
        "id": 15,
        "name": "麓湖公园",
        "district": "白云区",
        "location": "白云区麓湖路",
        "coordinates": [113.2794, 23.1494],
        "openTime": "06:00-22:00",
        "fee": "免费",
        "image": "https://picsum.photos/350/200?random=15",
        "description": "山水相依的自然公园，湖光山色，是市民休闲健身的好地方。"
    },
    {
        "id": 16,
        "name": "黄埔公园",
        "district": "黄埔区",
        "location": "黄埔区黄埔东路",
        "coordinates": [113.4644, 23.1167],
        "openTime": "06:00-22:00",
        "fee": "免费",
        "image": "https://picsum.photos/350/200?random=16",
        "description": "具有现代化设施的综合性公园，适合全家休闲娱乐。"
    },
    {
        "id": 17,
        "name": "萝岗香雪公园",
        "district": "黄埔区",
        "location": "黄埔区萝岗街道",
        "coordinates": [113.4944, 23.1467],
        "openTime": "06:00-18:00",
        "fee": "免费",
        "image": "https://picsum.photos/350/200?random=17",
        "description": "以梅花闻名的主题公园，冬季梅花盛开时景色如诗如画。"
    },
    {
        "id": 18,
        "name": "科学城中心湖公园",
        "district": "黄埔区",
        "location": "黄埔区科学城",
        "coordinates": [113.5044, 23.1367],
        "openTime": "全天开放",
        "fee": "免费",
        "image": "https://picsum.photos/350/200?random=18",
        "description": "现代科技园区内的生态公园，环境优美，科技感十足。"
    },
    {
        "id": 19,
        "name": "大夫山森林公园",
        "district": "番禺区",
        "location": "番禺区禺山西路",
        "coordinates": [113.3394, 22.9667],
        "openTime": "06:00-18:00",
        "fee": "免费",
        "image": "https://picsum.photos/350/200?random=19",
        "description": "广州最大的森林公园，空气清新，是天然的氧吧和户外运动的好地方。"
    },
    {
        "id": 20,
        "name": "番禺中心公园",
        "district": "番禺区",
        "location": "番禺区市桥街道",
        "coordinates": [113.3494, 22.9567],
        "openTime": "06:00-22:00",
        "fee": "免费",
        "image": "https://picsum.photos/350/200?random=20",
        "description": "番禺区的标志性公园，设施完善，是市民休闲娱乐的中心场所。"
    },
    {
        "id": 21,
        "name": "余荫山房",
        "district": "番禺区",
        "location": "番禺区南村镇",
        "coordinates": [113.3594, 22.9467],
        "openTime": "08:00-17:30",
        "fee": "收费",
        "image": "https://picsum.photos/350/200?random=21",
        "description": "清代古典园林，岭南四大名园之一，建筑精美，文化底蕴深厚。"
    },
    {
        "id": 22,
        "name": "花都湖公园",
        "district": "花都区",
        "location": "花都区新华街道",
        "coordinates": [113.2144, 23.4167],
        "openTime": "全天开放",
        "fee": "免费",
        "image": "https://picsum.photos/350/200?random=22",
        "description": "花都区的标志性公园，湖水清澈，景色宜人，是市民休闲的好去处。"
    },
    {
        "id": 23,
        "name": "花都中央公园",
        "district": "花都区",
        "location": "花都区新华街道",
        "coordinates": [113.2244, 23.4067],
        "openTime": "06:00-22:00",
        "fee": "免费",
        "image": "https://picsum.photos/350/200?random=23",
        "description": "现代化城市公园，绿化覆盖率高，是花都新城的绿色名片。"
    },
    {
        "id": 24,
        "name": "花都秀全公园",
        "district": "花都区",
        "location": "花都区秀全街道",
        "coordinates": [113.2044, 23.3967],
        "openTime": "06:00-22:00",
        "fee": "免费",
        "image": "https://picsum.photos/350/200?random=24",
        "description": "以洪秀全文化为主题的历史文化公园，兼具教育和休闲功能。"
    },
    {
        "id": 25,
        "name": "南沙湿地公园",
        "district": "南沙区",
        "location": "南沙区万顷沙镇",
        "coordinates": [113.6144, 22.7667],
        "openTime": "09:00-17:00",
        "fee": "收费",
        "image": "https://store.is.autonavi.com/showpic/a853a2853e0227d3e19ac4e383d91e10",
        "description": "珠三角地区保存最完整的湿地生态系统，是观鸟和生态旅游的理想场所。"
    },
    {
        "id": 26,
        "name": "南沙天后宫公园",
        "district": "南沙区",
        "location": "南沙区大角山",
        "coordinates": [113.6044, 22.7567],
        "openTime": "08:00-17:30",
        "fee": "收费",
        "image": "https://aos-comment.amap.com/B0FFKECDC9/comment/content_media_external_images_media_31142_1735639464895_62041012.jpg",
        "description": "集宗教文化和园林景观于一体的主题公园，可俯瞰珠江口美景。"
    },
    {
        "id": 27,
        "name": "南沙滨海公园",
        "district": "南沙区",
        "location": "南沙区海滨路",
        "coordinates": [113.5944, 22.7467],
        "openTime": "全天开放",
        "fee": "免费",
        "image": "https://aos-comment.amap.com/B00140UFT6/comment/3E4F6A01_8390_44FD_B463_8997E1C31FE0_L0_001_1080_1439_1732164427065_09166923.jpg",
        "description": "临海而建的现代化公园，海风习习，是观海赏景的绝佳地点。"
    },
    {
        "id": 28,
        "name": "流溪河国家森林公园",
        "district": "从化区",
        "location": "从化区良口镇",
        "coordinates": [113.7394, 23.6167],
        "openTime": "08:00-17:30",
        "fee": "收费",
        "image": "https://store.is.autonavi.com/showpic/e572582a317c8f6d84a76646a251ef9f",
        "description": "国家级森林公园，山清水秀，是避暑和生态旅游的绝佳选择。"
    },
    {
        "id": 29,
        "name": "石门国家森林公园",
        "district": "从化区",
        "location": "从化区温泉镇",
        "coordinates": [113.7294, 23.5967],
        "openTime": "08:00-17:30",
        "fee": "收费",
        "image": "https://picsum.photos/350/200?random=29",
        "description": "以红叶闻名的森林公园，秋季红叶满山，景色壮观。"
    },
    {
        "id": 30,
        "name": "从化温泉公园",
        "district": "从化区",
        "location": "从化区温泉镇",
        "coordinates": [113.7194, 23.5867],
        "openTime": "06:00-22:00",
        "fee": "免费",
        "image": "https://picsum.photos/350/200?random=30",
        "description": "温泉度假区内的休闲公园，环境清幽，是度假休闲的好地方。"
    },
    {
        "id": 31,
        "name": "增城公园",
        "district": "增城区",
        "location": "增城区荔城街道",
        "coordinates": [113.8144, 23.2667],
        "openTime": "06:00-22:00",
        "fee": "免费",
        "image": "https://picsum.photos/350/200?random=31",
        "description": "增城区的中心公园，环境优美，设施完善，是市民休闲娱乐的好地方。"
    },
    {
        "id": 32,
        "name": "白水寨风景名胜区",
        "district": "增城区",
        "location": "增城区派潭镇",
        "coordinates": [113.9144, 23.3667],
        "openTime": "08:00-17:30",
        "fee": "收费",
        "image": "https://store.is.autonavi.com/showpic/9c2f87a36be7a14dbf56a61160556a0d",
        "description": "以瀑布群闻名的自然风景区，有'南粤第一瀑'之称，是登山观瀑的胜地。"
    },
    {
        "id": 33,
        "name": "增城湖心岛公园",
        "district": "增城区",
        "location": "增城区荔城街道",
        "coordinates": [113.8044, 23.2567],
        "openTime": "06:00-22:00",
        "fee": "免费",
        "image": "https://store.is.autonavi.com/showpic/e5a03e71185fdd9d9b967091ab71803f",
        "description": "以湖心岛为特色的水景公园，环境优美，是市民休闲散步的好去处。"
    }
]